[
	{ "location": "Newport Pagnell", "lat": 52.0874835, "lon": -0.712959 },
	{ "location": "Hitchin", "lat": 51.9508, "lon": -0.280331 },
	{ "location": "Fleet", "lat": 51.2647098, "lon": -0.8238492 },
	{ "location": "London", "lat": 51.4648096, "lon": -0.249369 },
	{ "location": "Bognor Regis", "lat": 50.7867, "lon": -0.693562 },
	{ "location": "East Grinstead", "lat": 51.1340612, "lon": -0.0240138 },
	{ "location": "Hampton", "lat": 51.4256435, "lon": -0.3778512 },
	{ "location": "Harrow", "lat": 51.5752, "lon": -0.345776 },
	{ "location": "Bexleyheath", "lat": 51.4603774, "lon": 0.1466013 },
	{ "location": "Wallington", "lat": 51.3584, "lon": -0.153029 },
	{ "location": "Croydon", "lat": 51.3714, "lon": -0.052563 },
	{ "location": "Southampton", "lat": 50.9034162, "lon": -1.5438776 },
	{ "location": "Winchester", "lat": 51.0483845, "lon": -1.3248001 },
	{ "location": "Marlborough", "lat": 51.4109901, "lon": -1.5730772 },
	{ "location": "Whitchurch", "lat": 51.2326434, "lon": -1.3370426 },
	{ "location": "Sevenoaks", "lat": 51.283839, "lon": 0.2029354 },
	{ "location": "Letchworth Garden City", "lat": 51.9911, "lon": -0.20966 },
	{ "location": "Bexhill-on-Sea", "lat": 50.8451, "lon": 0.453139 },
	{ "location": "Hastings", "lat": 50.9013743, "lon": 0.5691726 },
	{ "location": "Leatherhead", "lat": 51.2976952, "lon": -0.3078596 },
	{ "location": "St Leonards-on-Sea", "lat": 50.8509793, "lon": 0.5391792 },
	{ "location": "Polegate", "lat": 50.8244603, "lon": 0.2413329 },
	{ "location": "Hove", "lat": 50.8283156, "lon": -0.1578366 },
	{ "location": "Bromley", "lat": 51.397572, "lon": 0.0454697 },
	{ "location": "Slough", "lat": 51.5487173, "lon": -0.6768607 },
	{ "location": "Canterbury", "lat": 51.2496275, "lon": 1.1247591 },
	{ "location": "Sittingbourne", "lat": 51.3531389, "lon": 0.7308259 },
	{ "location": "Snodland", "lat": 51.3298925, "lon": 0.4359208 },
	{ "location": "Alton", "lat": 51.1431835, "lon": -0.9807888 },
	{ "location": "New Malden", "lat": 51.4145873, "lon": -0.2585218 },
	{ "location": "Christchurch", "lat": 50.7291966, "lon": -1.7425993 },
	{ "location": "Weybridge", "lat": 51.3729483, "lon": -0.4633774 },
	{ "location": "Heathfield", "lat": 50.9354504, "lon": 0.2485014 },
	{ "location": "Bournemouth", "lat": 50.7230264, "lon": -1.8582452 },
	{ "location": "Wembley", "lat": 51.5656, "lon": -0.281946 },
	{ "location": "Oxford", "lat": 51.7185, "lon": -1.18833 },
	{ "location": "Godalming", "lat": 51.1852075, "lon": -0.6122009 },
	{ "location": "Longfield", "lat": 51.3942108, "lon": 0.3177043 },
	{ "location": "Wokingham", "lat": 51.4166264, "lon": -0.8375568 },
	{ "location": "Aylesbury", "lat": 51.8204, "lon": -0.816976 },
	{ "location": "Poole", "lat": 50.7481693, "lon": -1.9405783 },
	{ "location": "Lymington", "lat": 50.7505477, "lon": -1.55496 },
	{ "location": "Cambridge", "lat": 52.2217, "lon": 0.261873 },
	{ "location": "Swindon", "lat": 51.5998, "lon": -1.74595 },
	{ "location": "Sidcup", "lat": 51.4345959, "lon": 0.0903011 },
	{ "location": "Eastleigh", "lat": 50.9853712, "lon": -1.3984438 },
	{ "location": "Carterton", "lat": 51.7721, "lon": -1.59426 },
	{ "location": "Bedford", "lat": 52.1689, "lon": -0.462791 },
	{ "location": "Whitstable", "lat": 51.3515, "lon": 1.02266 },
	{ "location": "Chatham", "lat": 51.365058, "lon": 0.5242173 },
	{ "location": "Welling", "lat": 51.4681599, "lon": 0.104247 },
	{ "location": "Verwood", "lat": 50.8806045, "lon": -1.8728079 },
	{ "location": "Billericay", "lat": 51.6231973, "lon": 0.4401431 },
	{ "location": "Hindhead", "lat": 51.1120135, "lon": -0.7373828 },
	{ "location": "Leigh-on-Sea", "lat": 51.5511916, "lon": 0.6652642 },
	{ "location": "Orpington", "lat": 51.3489453, "lon": 0.0884411 },
	{ "location": "Hailsham", "lat": 50.8681984, "lon": 0.2571452 },
	{ "location": "High Wycombe", "lat": 51.6580438, "lon": -0.9158305 },
	{ "location": "Lyndhurst", "lat": 50.8713012, "lon": -1.5815682 },
	{ "location": "Broadstone", "lat": 50.7491114, "lon": -1.9986093 },
	{ "location": "Brentwood", "lat": 51.6175024, "lon": 0.2926016 },
	{ "location": "Chesham", "lat": 51.7202018, "lon": -0.6366629 },
	{ "location": "Uxbridge", "lat": 51.5423921, "lon": -0.4375309 },
	{ "location": "Reading", "lat": 51.4048863, "lon": -0.9463391 },
	{ "location": "Shepperton", "lat": 51.3947545, "lon": -0.4422208 },
	{ "location": "South Croydon", "lat": 51.3630639, "lon": -0.1063263 },
	{ "location": "Bracknell", "lat": 51.4199447, "lon": -0.7443091 },
	{ "location": "Banbury", "lat": 52.0626269, "lon": -1.3407003 },
	{ "location": "Maidstone", "lat": 51.2847791, "lon": 0.5578166 },
	{ "location": "Witney", "lat": 51.7819028, "lon": -1.5049345 },
	{ "location": "Ashford", "lat": 51.1414898, "lon": 0.9162398 },
	{ "location": "Windsor", "lat": 51.481082, "lon": -0.624787 },
	{ "location": "Horsham", "lat": 51.0824507, "lon": -0.3140655 },
	{ "location": "Milton Keynes", "lat": 51.9759114, "lon": -0.7320406 },
	{ "location": "Saffron Walden", "lat": 51.9882509, "lon": 0.2073943 },
	{ "location": "Arundel", "lat": 50.8371144, "lon": -0.6133031 },
	{ "location": "Banstead", "lat": 51.3204811, "lon": -0.2115261 },
	{ "location": "Tunbridge Wells", "lat": 51.1322592, "lon": 0.2546319 },
	{ "location": "Henley-on-Thames", "lat": 51.5279897, "lon": -0.8929899 },
	{ "location": "Lightwater", "lat": 51.3488073, "lon": -0.6646337 },
	{ "location": "Brighton", "lat": 50.8565283, "lon": -0.1510276 },
	{ "location": "Faversham", "lat": 51.3105727, "lon": 0.8797672 },
	{ "location": "Bishop's Stortford", "lat": 51.8863302, "lon": 0.1667513 },
	{ "location": "Bury St Edmunds", "lat": 52.2695454, "lon": 0.695946 },
	{ "location": "Dunstable", "lat": 51.8749913, "lon": -0.5038447 },
	{ "location": "Portsmouth", "lat": 50.8004061, "lon": -1.0646073 },
	{ "location": "Buntingford", "lat": 51.9371591, "lon": -0.010686 },
	{ "location": "Eastbourne", "lat": 50.7707048, "lon": 0.2571154 },
	{ "location": "Wantage", "lat": 51.5948607, "lon": -1.421881 },
	{ "location": "Enfield", "lat": 51.666747, "lon": -0.0710719 },
	{ "location": "Chigwell", "lat": 51.6143838, "lon": 0.1032466 },
	{ "location": "Loughton", "lat": 51.649044, "lon": 0.0778762 },
	{ "location": "Ascot", "lat": 51.3953297, "lon": -0.659557 },
	{ "location": "Hertford", "lat": 51.7931864, "lon": -0.0812395 },
	{ "location": "Marlow", "lat": 51.5799315, "lon": -0.7611477 },
	{ "location": "Kingston upon Thames", "lat": 51.415608, "lon": -0.253392 },
	{ "location": "Watford", "lat": 51.6653385, "lon": -0.3605835 },
	{ "location": "Chertsey", "lat": 51.3735284, "lon": -0.5231419 },
	{ "location": "Camberley", "lat": 51.3362987, "lon": -0.7451165 },
	{ "location": "Reigate", "lat": 51.2404311, "lon": -0.2182286 },
	{ "location": "Epsom", "lat": 51.3140351, "lon": -0.2270157 },
	{ "location": "Barnet", "lat": 51.6527145, "lon": -0.2040018 },
	{ "location": "Beckenham", "lat": 51.3965217, "lon": -0.0211929 },
	{ "location": "Romsey", "lat": 51.0036394, "lon": -1.4758672 },
	{ "location": "Swanley", "lat": 51.4132425, "lon": 0.1808338 },
	{ "location": "New Milton", "lat": 50.7603293, "lon": -1.6521435 },
	{ "location": "Egham", "lat": 51.4348948, "lon": -0.5391332 },
	{ "location": "Kenley", "lat": 51.3240053, "lon": -0.1067294 },
	{ "location": "Waterlooville", "lat": 50.8899496, "lon": -1.0491223 },
	{ "location": "Farnham", "lat": 51.2084692, "lon": -0.813873 },
	{ "location": "Newbury", "lat": 51.3817174, "lon": -1.3361251 },
	{ "location": "Carshalton", "lat": 51.3450065, "lon": -0.1697633 },
	{ "location": "Kidlington", "lat": 51.8310453, "lon": -1.2989663 },
	{ "location": "Chipping Norton", "lat": 51.9427189, "lon": -1.5496773 },
	{ "location": "Tonbridge", "lat": 51.1888331, "lon": 0.2687849 },
	{ "location": "Gerrards Cross", "lat": 51.6208237, "lon": -0.5512115 },
	{ "location": "Shefford", "lat": 52.032143, "lon": -0.33012947 }
]
